{
    "5724": {
        "대권역": "섬진강",
        "중권역": "요천",
        "종류": "국가관리측정망",
        "측정망명": "남원도통",
        "주소": "전북특별자치도 남원시 도통동 554",
        "lat": "35.41968333",
        "lon": "127.4004639",
        "설치년도": "19951227",
        "설치심도": "20",
        "수리전도도(cm/sec)": "0.0132",
        "표고(EL.m)": "108.29",
        "NSE": "0.978352611188534",
        "KGE": "0.952880252394771",
        "RMSE": "0.0402787194703538",
        "R2": "0.978352611188534"
    },
    "9879": {
        "대권역": "낙동강",
        "중권역": "합천댐",
        "종류": "국가관리측정망",
        "측정망명": "거창거창",
        "주소": "경상남도 거창군 거창읍 학리 1047-62",
        "lat": "35.72276465",
        "lon": "127.92402",
        "설치년도": "19980516",
        "설치심도": "10",
        "수리전도도(cm/sec)": "0.01879",
        "표고(EL.m)": "204.58",
        "NSE": "0.928199235692686",
        "KGE": "0.874102083494744",
        "RMSE": "0.0865281890448711",
        "R2": "0.928199235692686"
    },
    "11746": {
        "대권역": "한강",
        "중권역": "섬강",
        "종류": "국가관리측정망",
        "측정망명": "원주문막",
        "주소": "강원특별자치도 원주시 문막읍 문막리 1049-1",
        "lat": "37.30698782",
        "lon": "127.8128007",
        "설치년도": "19961115",
        "설치심도": "20",
        "수리전도도(cm/sec)": "0.1507",
        "표고(EL.m)": "59.17",
        "NSE": "0.999072424788328",
        "KGE": "0.99884605746928",
        "RMSE": "0.0149315499605745",
        "R2": "0.999072424788328"
    },
    "11777": {
        "대권역": "섬진강",
        "중권역": "순창",
        "종류": "국가관리측정망",
        "측정망명": "곡성입면",
        "주소": "전라남도 곡성군 입면 매월리 584-7",
        "lat": "35.29684211",
        "lon": "127.2033483",
        "설치년도": "19961229",
        "설치심도": "7",
        "수리전도도(cm/sec)": "0.0008457",
        "표고(EL.m)": "82.07",
        "NSE": "0.995501383100364",
        "KGE": "0.993719891202371",
        "RMSE": "0.0200291472705575",
        "R2": "0.995501383100364"
    },
    "65056": {
        "대권역": "섬진강",
        "중권역": "순창",
        "종류": "국가관리측정망",
        "측정망명": "순창순창",
        "주소": "전북특별자치도 순창군 순창읍 남계리 968-28번지",
        "lat": "35.36783171",
        "lon": "127.1482271",
        "설치년도": "19991224",
        "설치심도": "10",
        "수리전도도(cm/sec)": "0.004522",
        "표고(EL.m)": "84.72",
        "NSE": "0.996322647705305",
        "KGE": "0.987463885037159",
        "RMSE": "0.0195328969200979",
        "R2": "0.996322647705305"
    },
    "73515": {
        "대권역": "금강",
        "중권역": "영동천",
        "종류": "국가관리측정망",
        "측정망명": "금산금산",
        "주소": "",
        "lat": "36.10014444",
        "lon": "127.5122528",
        "설치년도": "20011220",
        "설치심도": "20",
        "수리전도도(cm/sec)": "0.000794",
        "표고(EL.m)": "144.22",
        "NSE": "0.987544297768259",
        "KGE": "0.971791545370787",
        "RMSE": "0.0334612923189081",
        "R2": "0.987544297768259"
    },
    "73538": {
        "대권역": "낙동강",
        "중권역": "임하댐",
        "종류": "국가관리측정망",
        "측정망명": "안동길안",
        "주소": "경상북도 안동시 길안면 천지리 731-1",
        "lat": "36.45866519",
        "lon": "128.8941926",
        "설치년도": "20011220",
        "설치심도": "10",
        "수리전도도(cm/sec)": "0.0001332",
        "표고(EL.m)": "128.91",
        "NSE": "0.991234064050084",
        "KGE": "0.98518055484594",
        "RMSE": "0.0284406310165719",
        "R2": "0.991234064050084"
    },
    "82031": {
        "대권역": "섬진강",
        "중권역": "섬진강댐",
        "종류": "국가관리측정망",
        "측정망명": "순창쌍치",
        "주소": "전북특별자치도 순창군 쌍치면 금평리 811-7",
        "lat": "35.49941199",
        "lon": "126.9925439",
        "설치년도": "20030601",
        "설치심도": "10",
        "수리전도도(cm/sec)": "0.00159",
        "표고(EL.m)": "226.849",
        "NSE": "0.966921261270858",
        "KGE": "0.932679730247023",
        "RMSE": "0.0478240556654235",
        "R2": "0.966921261270858"
    },
    "82049": {
        "대권역": "낙동강",
        "중권역": "남강댐",
        "종류": "국가관리측정망",
        "측정망명": "함양병곡",
        "주소": "경상남도 함양군 병곡면 송평리 628-3",
        "lat": "35.52952397",
        "lon": "127.6783765",
        "설치년도": "20030601",
        "설치심도": "10",
        "수리전도도(cm/sec)": "0.000171",
        "표고(EL.m)": "218.862",
        "NSE": "0.983908994533779",
        "KGE": "0.970089652121209",
        "RMSE": "0.0393054600051351",
        "R2": "0.983908994533779"
    },
    "84020": {
        "대권역": "한강서해",
        "중권역": "시화호",
        "종류": "국가관리측정망",
        "측정망명": "화성팔탄",
        "주소": "경기도 화성시 팔탄면 구장리 1029-4",
        "lat": "37.16441512",
        "lon": "126.9036319",
        "설치년도": "20031215",
        "설치심도": "10",
        "수리전도도(cm/sec)": "0.000382",
        "표고(EL.m)": "30.203",
        "NSE": "0.983805513968833",
        "KGE": "0.966888968355178",
        "RMSE": "0.0195828032560828",
        "R2": "0.983805513968833"
    },
    "514307": {
        "대권역": "영산강",
        "중권역": "영암천",
        "종류": "국가관리측정망",
        "측정망명": "영암영암",
        "주소": "전라남도 영암군 영암읍 대신리 704-23",
        "lat": "34.81025775",
        "lon": "126.7078621",
        "설치년도": "20101201",
        "설치심도": "10",
        "수리전도도(cm/sec)": "0.0003328",
        "표고(EL.m)": "8.38",
        "NSE": "0.985497853784233",
        "KGE": "0.972390113701217",
        "RMSE": "0.0178998660066547",
        "R2": "0.985497853784233"
    },
    "514310": {
        "대권역": "섬진강",
        "중권역": "오수천",
        "종류": "국가관리측정망",
        "측정망명": "임실오수1",
        "주소": "전북특별자치도 임실군 오수면 오수리 148-5",
        "lat": "35.52723692",
        "lon": "127.3271332",
        "설치년도": "20101201",
        "설치심도": "20",
        "수리전도도(cm/sec)": "0.0003048",
        "표고(EL.m)": "116.75",
        "NSE": "0.826184093059964",
        "KGE": "0.933433887716385",
        "RMSE": "0.0841629830508301",
        "R2": "0.826184093059964"
    }
}
